{"type": "FeatureCollection", "name": "TrackSet", "crs": {"type": "name", "properties": {"name": "urn:ogc:def:crs:OGC:1.3:CRS84"}}, "bbox": [3.0, 1.0, 4.0, 2.0], "features": [{"type": "Feature", "geometry": {"type": "Point", "coordinates": [-69.069964, -16.038232, 0.0]}, "properties": {"name": "Iñaq Uyu", "desc": "castle"}}, {"type": "Feature", "geometry": {"type": "Point", "coordinates": [-69.143005, -16.047852, 0.0]}, "properties": {"name": "Templo del Sol", "desc": "castle"}}, {"type": "Feature", "geometry": {"type": "Point", "coordinates": [-68.67236, -16.553096, 0.0]}, "properties": {"name": "Tiwanaku", "desc": "castle"}}, {"type": "Feature", "geometry": {"type": "Point", "coordinates": [-68.23967, -16.19387, 0.0]}, "properties": {"name": "Condoriri Base Camp", "desc": "campsite"}}, {"type": "Feature", "geometry": {"type": "Point", "coordinates": [-68.21331, -16.17144, 0.0]}, "properties": {"name": "Pequeño Alpamayo", "desc": "mountain"}}, {"type": "Feature", "geometry": {"type": "Point", "coordinates": [-68.17726, -16.5082, 0.0]}, "properties": {"name": "El Alto International Airport", "desc": "airport"}}, {"type": "Feature", "geometry": {"type": "Point", "coordinates": [-68.89944, -18.09919, 0.0]}, "properties": {"name": "Sajama high camp", "desc": "campsite"}}, {"type": "Feature", "geometry": {"type": "Point", "coordinates": [-68.88283, -18.10818, 0.0]}, "properties": {"name": "Sajama", "desc": "mountain"}}, {"type": "Feature", "geometry": {"type": "Point", "coordinates": [-66.84326, -20.44554, 0.0]}, "properties": {"name": "Uyuni Airport", "desc": "airport"}}, {"type": "Feature", "geometry": {"type": "Point", "coordinates": [-66.83797, -20.48174, 0.0]}, "properties": {"name": "Train Graveyard", "desc": "castle"}}, {"type": "Feature", "geometry": {"type": "Point", "coordinates": [-67.1662, -21.15431, 0.0]}, "properties": {"name": "San Cristobal Church", "desc": "castle"}}, {"type": "Feature", "geometry": {"type": "Point", "coordinates": [-67.57977, -21.53474, 0.0]}, "properties": {"name": "Valle de Rocas", "desc": "castle"}}, {"type": "Feature", "geometry": {"type": "Point", "coordinates": [-67.81584, -22.26432, 0.0]}, "properties": {"name": "Hostal Lago Colorado", "desc": "lodging"}}, {"type": "Feature", "geometry": {"type": "Point", "coordinates": [-67.75807, -22.43463, 0.0]}, "properties": {"name": "Geysers", "desc": "castle"}}, {"type": "Feature", "geometry": {"type": "Point", "coordinates": [-67.64938, -22.53575, 0.0]}, "properties": {"name": "Geothermal Pools", "desc": "castle"}}, {"type": "Feature", "geometry": {"type": "Point", "coordinates": [-67.68292, -22.59889, 0.0]}, "properties": {"name": "Dahli’s Desert", "desc": "castle"}}, {"type": "Feature", "geometry": {"type": "Point", "coordinates": [-67.81825, -22.7878, 0.0]}, "properties": {"name": "Lago Verde", "desc": "castle"}}, {"type": "Feature", "geometry": {"type": "Point", "coordinates": [-67.79908, -22.21937, 0.0]}, "properties": {"name": "Lago Colorado picnic", "desc": "castle"}}, {"type": "Feature", "geometry": {"type": "Point", "coordinates": [-67.88308, -22.05147, 0.0]}, "properties": {"name": "Rock tree", "desc": "castle"}}, {"type": "Feature", "geometry": {"type": "Point", "coordinates": [-68.0053, -21.92574, 0.0]}, "properties": {"name": "Lava and Viscacha", "desc": "castle"}}, {"type": "Feature", "geometry": {"type": "Point", "coordinates": [-68.04018, -21.57423, 0.0]}, "properties": {"name": "Flamingo Lake", "desc": "castle"}}, {"type": "Feature", "geometry": {"type": "Point", "coordinates": [-67.76448, -20.9, 0.0]}, "properties": {"name": "Hostal de Sal Los Lipez", "desc": "lodging"}}, {"type": "Feature", "geometry": {"type": "Point", "coordinates": [-67.66822, -20.35113, 0.0]}, "properties": {"name": "Isla Pía Pía", "desc": "castle"}}, {"type": "Feature", "geometry": {"type": "Point", "coordinates": [-67.6256, -20.24301, 0.0]}, "properties": {"name": "Isla Inkahuasi", "desc": "castle"}}, {"type": "Feature", "geometry": {"type": "Point", "coordinates": [-66.9972, -20.3119, 0.0]}, "properties": {"name": "Eyes of Salt", "desc": "castle"}}, {"type": "Feature", "geometry": {"type": "Point", "coordinates": [-66.97265, -20.3123, 0.0]}, "properties": {"name": "Hotel Cristal Salana", "desc": "lodging"}}, {"type": "Feature", "geometry": {"type": "Point", "coordinates": [-65.260408, -19.050664, 0.0]}, "properties": {"name": "Hotel de Su Merced", "desc": "lodging"}}]}