{"type": "FeatureCollection", "name": "LayerName", "crs": {"type": "name", "properties": {"name": "urn:ogc:def:crs:OGC:1.3:CRS84"}}, "features": [{"type": "Feature", "properties": {"name": "PLANE_USA", "cmt": "2013-07-23", "desc": "1.0"}, "geometry": {"type": "LineString", "coordinates": [[-123.183889, 49.194722], [-122.949167, 50.143611], [-123.183889, 49.194722], [-122.375, 37.618889], [-87.904722, 41.978611], [-71.006389, 42.363056], [-73.778889, 40.639722]]}}, {"type": "Feature", "properties": {"name": "Vancouver International Airport", "desc": "airport"}, "geometry": {"type": "Point", "coordinates": [-123.183889, 49.194722]}}, {"type": "Feature", "properties": {"name": "Whistler Green Lake Airport", "desc": "airport"}, "geometry": {"type": "Point", "coordinates": [-122.949167, 50.143611]}}, {"type": "Feature", "properties": {"name": "San Francisco International Airport", "desc": "airport"}, "geometry": {"type": "Point", "coordinates": [-122.375, 37.618889]}}, {"type": "Feature", "properties": {"name": "Chicago O'Hare International Airport", "desc": "airport"}, "geometry": {"type": "Point", "coordinates": [-87.904722, 41.978611]}}, {"type": "Feature", "properties": {"name": "Boston Logan International Airport", "desc": "airport"}, "geometry": {"type": "Point", "coordinates": [-71.006389, 42.363056]}}, {"type": "Feature", "properties": {"name": "New York JFK Airport", "desc": "airport"}, "geometry": {"type": "Point", "coordinates": [-73.778889, 40.639722]}}]}
