<?xml version="1.0" encoding="UTF-8"?>
<gpx xmlns="http://www.topografix.com/GPX/1/1" xmlns:xsi="http://www.w3.org/2001/XMLSchema-instance" xsi:schemaLocation="http://www.topografix.com/GPX/1/1 http://www.topografix.com/GPX/1/1/gpx.xsd" version="1.1" creator="GDAL 2.4.4">
  <wpt lat="25.70540353" lon="32.64352511">
    <ele>0.0</ele>
    <name>Etap Hotel</name>
    <desc>lodging</desc>
  </wpt>
  <wpt lat="25.69954065" lon="32.63937276">
    <ele>0.0</ele>
    <name>Temple of Luxor</name>
    <desc>castle</desc>
  </wpt>
  <wpt lat="25.71872" lon="32.65747">
    <ele>0.0</ele>
    <name>Karnak Temple</name>
    <desc>castle</desc>
  </wpt>
  <wpt lat="25.74018" lon="32.60197">
    <ele>0.0</ele>
    <name>Valley of the Kings</name>
    <desc>castle</desc>
  </wpt>
  <wpt lat="25.73929591" lon="32.61352253">
    <ele>0.0</ele>
    <name>Temple of Hatshepsut</name>
    <desc>castle</desc>
  </wpt>
  <wpt lat="25.72889286" lon="32.59359781">
    <ele>0.0</ele>
    <name>Valley of the Queens</name>
    <desc>castle</desc>
  </wpt>
  <wpt lat="25.72791411" lon="32.60105073">
    <ele>0.0</ele>
    <name>Tomb of Sennedjem</name>
    <desc>castle</desc>
  </wpt>
  <wpt lat="25.73132397" lon="32.61115499">
    <ele>0.0</ele>
    <name>Tombs of the Nobles</name>
    <desc>castle</desc>
  </wpt>
  <wpt lat="25.72092612" lon="32.6111637">
    <ele>0.0</ele>
    <name>Colossi of Memnon</name>
    <desc>castle</desc>
  </wpt>
  <wpt lat="29.97848" lon="31.13246">
    <ele>0.0</ele>
    <name>Giza Pyramids</name>
    <desc>castle</desc>
  </wpt>
  <wpt lat="30.05030935" lon="31.23260532">
    <ele>0.0</ele>
    <name>Ramses Hilton</name>
    <desc>castle</desc>
  </wpt>
  <wpt lat="29.84495497" lon="31.25159796">
    <ele>0.0</ele>
    <name>Memphis</name>
    <desc>castle</desc>
  </wpt>
  <wpt lat="29.85044592" lon="31.21761109">
    <ele>0.0</ele>
    <name>Saqqarah</name>
    <desc>castle</desc>
  </wpt>
  <wpt lat="30.02922003" lon="31.25971622">
    <ele>0.0</ele>
    <name>Citadel</name>
    <desc>castle</desc>
  </wpt>
  <wpt lat="26.14259178" lon="32.67094131">
    <ele>0.0</ele>
    <name>Dendera</name>
    <desc>castle</desc>
  </wpt>
  <trk>
    <name>CAR_Egypt</name>
    <cmt>1992-10-10</cmt>
    <desc>1.0</desc>
    <type>Velomobile</type>
    <trkseg>
      <trkpt lat="0.000001" lon="0.000001">
        <ele>0</ele>
      </trkpt>
      <trkpt lat="0.000002" lon="0.000002">
        <ele>0</ele>
      </trkpt>
    </trkseg>
  </trk>
</gpx>
