<?xml version="1.0"?>
<gpx version="1.1" creator="GDAL 2.4.4" xmlns:xsi="http://www.w3.org/2001/XMLSchema-instance" xmlns="http://www.topografix.com/GPX/1/1" xsi:schemaLocation="http://www.topografix.com/GPX/1/1 http://www.topografix.com/GPX/1/1/gpx.xsd">
  <trk>
    <name>CAR_Mexico</name>
    <cmt>1993-11-27</cmt>
    <desc>1.0</desc>
    <trkseg>
      <trkpt lat="0.000001" lon="0.000001">
        <ele>0.0</ele>
      </trkpt>
      <trkpt lat="0.000002" lon="0.000002">
        <ele>0.0</ele>
      </trkpt>
    </trkseg>
  </trk>
  <wpt lat="19.431506220" lon="-99.147486950">
    <ele>0.0</ele>
    <name>West Galeria Plaza Hotel</name>
    <desc>lodging</desc>
  </wpt>
  <wpt lat="19.434606655" lon="-99.132449401">
    <ele>0.0</ele>
    <name>Cathedral</name>
    <desc>castle</desc>
  </wpt>
  <wpt lat="19.432402002" lon="-99.131150830">
    <ele>0.0</ele>
    <name>Presidents Palace</name>
    <desc>castle</desc>
  </wpt>
  <wpt lat="19.419194104" lon="-99.189227829">
    <ele>0.0</ele>
    <name>Chapultepec Park</name>
    <desc>castle</desc>
  </wpt>
  <wpt lat="19.690934156" lon="-98.844869740">
    <ele>0.0</ele>
    <name>Pirámides de Teotihuacan</name>
    <desc>castle</desc>
  </wpt>
  <wpt lat="17.046773582" lon="-96.635735662">
    <ele>0.0</ele>
    <name>Tule Tree</name>
    <desc>castle</desc>
  </wpt>
  <wpt lat="16.926590549" lon="-96.359817849">
    <ele>0.0</ele>
    <name>Mitla</name>
    <desc>castle</desc>
  </wpt>
  <wpt lat="16.867654375" lon="-96.377449107">
    <ele>0.0</ele>
    <name>Mezcal</name>
    <desc>castle</desc>
  </wpt>
  <wpt lat="17.029606864" lon="-96.518957706">
    <ele>0.0</ele>
    <name>Teotitlán craft market</name>
    <desc>castle</desc>
  </wpt>
  <wpt lat="17.045845108" lon="-96.768388147">
    <ele>0.0</ele>
    <name>Monte Albán</name>
    <desc>castle</desc>
  </wpt>
  <wpt lat="17.067709525" lon="-96.71946952">
    <ele>0.0</ele>
    <name>Templo de Santo Domingo</name>
    <desc>castle</desc>
  </wpt>
  <wpt lat="17.487125319" lon="-92.049451149">
    <ele>0.0</ele>
    <name>Palenque</name>
    <desc>castle</desc>
  </wpt>
  <wpt lat="20.362490359" lon="-89.774179720">
    <ele>0.0</ele>
    <name>Uxmal</name>
    <desc>castle</desc>
  </wpt>
  <wpt lat="20.683086323" lon="-88.569190570">
    <ele>0.0</ele>
    <name>Chichen Itza</name>
    <desc>castle</desc>
  </wpt>
  <wpt lat="21.081332969" lon="-86.773007812">
    <ele>0.0</ele>
    <name>Fiesta Americana Condesa Hotel</name>
    <desc>lodging</desc>
  </wpt>
</gpx>
