<?xml version="1.0"?>
<gpx version="1.1" creator="GDAL 2.4.4" xmlns:xsi="http://www.w3.org/2001/XMLSchema-instance" xmlns="http://www.topografix.com/GPX/1/1" xsi:schemaLocation="http://www.topografix.com/GPX/1/1 http://www.topografix.com/GPX/1/1/gpx.xsd">
<wpt lat="46.793473" lon="10.287839">
  <name>Scuol</name>
  <desc>castle</desc>
</wpt>
<wpt lat="46.603501" lon="10.426731">
  <name>Santa Maria</name>
  <desc>castle</desc>
</wpt>
<wpt lat="46.547537" lon="10.139297">
  <name>Livigno</name>
  <desc>castle</desc>
</wpt>
<wpt lat="46.459855" lon="9.797664">
  <name>Silvaplana</name>
  <desc>castle</desc>
</wpt>
<wpt lat="46.468971" lon="9.649834">
  <name>Bivio</name>
  <desc>castle</desc>
</wpt>
<wpt lat="46.791467" lon="9.338542">
  <name>Versam</name>
  <desc>castle</desc>
</wpt>
<wpt lat="46.687713" lon="9.388463">
  <name>Tschappina</name>
  <desc>castle</desc>
</wpt>
<wpt lat="46.683479" lon="9.134041">
  <name>Lumbrein</name>
  <desc>castle</desc>
</wpt>
<wpt lat="46.705634" lon="8.854044">
  <name>Disentis</name>
  <desc>castle</desc>
</wpt>
<wpt lat="46.633642" lon="8.597293">
  <name>Andermatt</name>
  <desc>castle</desc>
</wpt>
<wpt lat="46.731029" lon="8.427896">
  <name>Susten Pass</name>
  <desc>castle</desc>
</wpt>
<wpt lat="46.632255" lon="8.070841">
  <name>Grindelwald</name>
  <desc>castle</desc>
</wpt>
<wpt lat="46.662475" lon="7.727881">
  <name>Krattigen</name>
  <desc>castle</desc>
</wpt>
<wpt lat="46.492325" lon="7.558438">
  <name>Adelboden</name>
  <desc>castle</desc>
</wpt>
<wpt lat="46.457792" lon="7.4431">
  <name>Lenk</name>
  <desc>castle</desc>
</wpt>
</gpx>
