{"type": "FeatureCollection", "name": "TrackSet", "crs": {"type": "name", "properties": {"name": "urn:ogc:def:crs:OGC:1.3:CRS84"}}, "bbox": [1e-06, 1e-06, 3e-06, 3e-06], "features": [{"type": "Feature", "bbox": [1e-06, 1e-06, 3e-06, 3e-06], "geometry": {"type": "LineString", "coordinates": [[1e-06, 1e-06], [3e-06, 3e-06]]}, "properties": {"name": "BIKE_Waypoints", "cmt": "2015-07-28", "desc": "UpHill", "src": "1e-06/1e-06/3e-06/3e-06", "bbox": "1e-06/1e-06/3e-06/3e-06"}}, {"type": "Feature", "geometry": {"type": "Point", "coordinates": [10.287839, 46.793473, 0.0]}, "properties": {"name": "Scuol", "desc": "lodging"}}, {"type": "Feature", "geometry": {"type": "Point", "coordinates": [10.426731, 46.603501, 0.0]}, "properties": {"name": "Santa Maria", "desc": "lodging"}}, {"type": "Feature", "geometry": {"type": "Point", "coordinates": [10.139297, 46.547537, 0.0]}, "properties": {"name": "Livigno", "desc": "lodging"}}, {"type": "Feature", "geometry": {"type": "Point", "coordinates": [9.812093, 46.458166, 0.0]}, "properties": {"name": "Silvaplana", "desc": "lodging"}}, {"type": "Feature", "geometry": {"type": "Point", "coordinates": [9.649834, 46.468971, 0.0]}, "properties": {"name": "Bivio", "desc": "lodging"}}, {"type": "Feature", "geometry": {"type": "Point", "coordinates": [9.338542, 46.791467, 0.0]}, "properties": {"name": "Versam", "desc": "lodging"}}, {"type": "Feature", "geometry": {"type": "Point", "coordinates": [9.388463, 46.687713, 0.0]}, "properties": {"name": "Tschappina", "desc": "lodging"}}, {"type": "Feature", "geometry": {"type": "Point", "coordinates": [9.134041, 46.683479, 0.0]}, "properties": {"name": "Lumbrein", "desc": "lodging"}}, {"type": "Feature", "geometry": {"type": "Point", "coordinates": [8.854044, 46.705634, 0.0]}, "properties": {"name": "Disentis", "desc": "lodging"}}, {"type": "Feature", "geometry": {"type": "Point", "coordinates": [8.597893, 46.63408, 0.0]}, "properties": {"name": "Andermatt", "desc": "lodging"}}, {"type": "Feature", "geometry": {"type": "Point", "coordinates": [8.427896, 46.731029, 0.0]}, "properties": {"name": "Susten Pass", "desc": "lodging"}}, {"type": "Feature", "geometry": {"type": "Point", "coordinates": [8.070841, 46.632255, 0.0]}, "properties": {"name": "Grindelwald", "desc": "lodging"}}, {"type": "Feature", "geometry": {"type": "Point", "coordinates": [7.727881, 46.662475, 0.0]}, "properties": {"name": "Krattigen", "desc": "lodging"}}, {"type": "Feature", "geometry": {"type": "Point", "coordinates": [7.558438, 46.492325, 0.0]}, "properties": {"name": "Adelboden", "desc": "lodging"}}, {"type": "Feature", "geometry": {"type": "Point", "coordinates": [7.4431, 46.457792, 0.0]}, "properties": {"name": "Lenk", "desc": "lodging"}}, {"type": "Feature", "geometry": {"type": "Point", "coordinates": [7.130908, 46.473973, 0.0]}, "properties": {"name": "Château-d'Oex", "desc": "lodging"}}, {"type": "Feature", "geometry": {"type": "Point", "coordinates": [9.699434, 46.406289, 0.0]}, "properties": {"name": "Maloja", "desc": "lodging"}}, {"type": "Feature", "geometry": {"type": "Point", "coordinates": [9.312559, 46.148548, 0.0]}, "properties": {"name": "Domaso", "desc": "lodging"}}, {"type": "Feature", "geometry": {"type": "Point", "coordinates": [9.028299, 46.19551, 0.0]}, "properties": {"name": "Belinzona", "desc": "lodging"}}, {"type": "Feature", "geometry": {"type": "Point", "coordinates": [9.530617, 47.471688, 0.0]}, "properties": {"name": "Rorschach", "desc": "lodging"}}, {"type": "Feature", "geometry": {"type": "Point", "coordinates": [9.4078, 47.332141, 0.0]}, "properties": {"name": "Appenzell", "desc": "lodging"}}, {"type": "Feature", "geometry": {"type": "Point", "coordinates": [9.328678, 47.19004, 0.0]}, "properties": {"name": "St Johan", "desc": "lodging"}}, {"type": "Feature", "geometry": {"type": "Point", "coordinates": [9.303585, 47.127746, 0.0]}, "properties": {"name": "Walenstadt", "desc": "lodging"}}, {"type": "Feature", "geometry": {"type": "Point", "coordinates": [9.097497, 47.13512, 0.0]}, "properties": {"name": "Weesen", "desc": "lodging"}}, {"type": "Feature", "geometry": {"type": "Point", "coordinates": [8.749195, 47.126842, 0.0]}, "properties": {"name": "Einsiedeln", "desc": "lodging"}}, {"type": "Feature", "geometry": {"type": "Point", "coordinates": [8.268709, 46.873803, 0.0]}, "properties": {"name": "Flüeli-Ranft", "desc": "lodging"}}, {"type": "Feature", "geometry": {"type": "Point", "coordinates": [8.031803, 46.822283, 0.0]}, "properties": {"name": "Sörenberg", "desc": "lodging"}}, {"type": "Feature", "geometry": {"type": "Point", "coordinates": [7.64463, 46.746061, 0.0]}, "properties": {"name": "Thun", "desc": "lodging"}}, {"type": "Feature", "geometry": {"type": "Point", "coordinates": [7.28541, 46.671021, 0.0]}, "properties": {"name": "Schwarzsee", "desc": "lodging"}}, {"type": "Feature", "geometry": {"type": "Point", "coordinates": [8.915656, 47.106543, 0.0]}, "properties": {"name": "Innerthal", "desc": "lodging"}}, {"type": "Feature", "geometry": {"type": "Point", "coordinates": [9.172311, 46.919047, 0.0]}, "properties": {"name": "Elm", "desc": "lodging"}}, {"type": "Feature", "geometry": {"type": "Point", "coordinates": [9.208239, 46.77485, 0.0]}, "properties": {"name": "Ilanz", "desc": "lodging"}}]}